[
  {
    "name": "Fairy - フェアリー",
    "area": "池袋駅（東口）",
    "business_hours": "20:00～1:00",
    "holiday": "日曜",
    "budget": "60分 5,500円〜 \n                                    \n                                                                                    (税込) (税込)",
    "phone": "090-2080-7541",
    "address": "東京都豊島区東池袋1-4-2  三経33ビル 4F"
  },
  {
    "name": "cafe&bar Spiral D TOKYO - スパイラルディートウキョウ",
    "area": "歌舞伎町のガールズバー",
    "business_hours": "21:00～LAST",
    "holiday": "水曜",
    "budget": "60分 4,000円〜 \n                                    \n                                                                                    (税・サ別) (税・サ別)",
    "phone": "080-4291-0326",
    "address": "東京都新宿区歌舞伎町1-7-1  J2ビル地上3階全室"
  },
  {
    "name": "LoiS - ロイズ",
    "area": "大森",
    "business_hours": "20:00～LAST",
    "holiday": "日曜",
    "budget": "60分 4,000円\n                                    \n                                                                                    (税・サ別) (税・サ別)",
    "phone": "03-5753-3110",
    "address": "東京都大田区大森北1-4-1  桂昇大森駅前ビル 8F"
  },
  {
    "name": "小結 - オムスビ",
    "area": "高田馬場のガールズバー",
    "business_hours": "20:00～LAST",
    "holiday": "日曜",
    "budget": "60分 3,000円\n                                    \n                                                                                    (税・サ別) (税・サ別)",
    "phone": "03-6205-6887",
    "address": "東京都新宿区高田馬場2‐19‐7  タックイレブン高田馬場 1F"
  },
  {
    "name": "NUMBER46 - ナンバーフォーティーシックス",
    "area": "歌舞伎町のコンカフェ＆バー",
    "business_hours": "18:00～1:00",
    "holiday": "年中無休",
    "budget": "30分 640円〜 \n                                    \n                                                                                    (税・サ別) (税・サ別)",
    "phone": "03-6457-6185",
    "address": "東京都新宿区歌舞伎町2-45-17  GEST33ビル 2F"
  }
]